[
    {
        "id": 1,
        "Name":"Illuminate Coffee Bar",
        "Description":"A local coffee shop that cares as much about coffee as they do the people who serve it.",
        "Address": "12129 N FM 620 Suite 102 Austin, TX 78750",
        "Hours":"M-F 7AM - 5PM"
    },
    {
        "id": 2,
        "Name":"San Francisco Bakery and Cafe",
        "Description":"Vibrant cafe serving soup, salads and sandiches plus sweets. Family-owned bakery serving breakfast and lunch. Full coffee service, amazing quiche, the best staff.",
        "Address":"2900 W Anderson Lane Austin TX 78757",
        "Hours":"T-F 7AM - 6PM, Sat 7AM - 3PM"
    },
    {
        "id": 3,
        "Name":"Eldorado Cafe",
        "Description":"Colorful cantina serving Mexican tortas, guisas, enchiladas, carnitas and creative craft cocktails. They know their way around a margarita. Get their cheesy-n-rice as your side. You're welcome.",
        "Address": "3300 W Anderson Lane Austin, TX 78757",
        "Hours":"T-Sun 9AM - 8PM"
    },
    {
        "id": 4,
        "Name":"Vigilante Gastropub and Games",
        "Description":"Board games are the main draw at this quirky bar with street-style bites and local beers. Revamped menu plus specialty cocktails are just a couple ways Vigilante is always improving.",
        "Address":"7010 Easy Wind Drive Suite 150 Austin, TX 78752",
        "Hours":"M-Thurs 4PM - 10PM Fri 4PM - 12AM"
    },
    {
        "id": 5,
        "Name":"Full English",
        "Description":"Full English breakfasts, high tea and other British fare served in a space with funky and vintage decor. Colorful locals. Beans on toast. English-style pancakes with lemon and sugar.",
        "Address": "12129 N FM 620 Suite 102 Austin, TX 78750",
        "Hours":"M-F 7AM - 5PM"
    }
]